[
	{
		"id": "ca47e6f9-c825-11ed-88ea-b026289853a4",
		"name": "Desolate Highlands",
		"polyCoords": null,
		"zoneId": "84148979-c85a-11ed-88ea-b026289853a4",
		"longitude": "77.16796875000001",
		"latitude": "-37.509725842937506",
		"description": null,
		"createdAt": "2023-03-21T20:10:54.000Z",
		"updatedAt": "2023-03-21T20:10:54.000Z"
	},
	{
		"id": "dbab1421-c825-11ed-88ea-b026289853a4",
		"name": "Dobrev Taiga",
		"polyCoords": null,
		"zoneId": "84148979-c85a-11ed-88ea-b026289853a4",
		"longitude": "107.40234375000001",
		"latitude": "-43.7710938177565",
		"description": null,
		"createdAt": "2023-03-21T20:11:21.000Z",
		"updatedAt": "2023-03-21T20:11:21.000Z"
	},
	{
		"id": "bc56a199-c825-11ed-88ea-b026289853a4",
		"name": "Frigid Expanse",
		"polyCoords": null,
		"zoneId": "84148979-c85a-11ed-88ea-b026289853a4",
		"longitude": "118.38867187500001",
		"latitude": "-5.353521355337321",
		"description": null,
		"createdAt": "2023-03-21T20:10:20.000Z",
		"updatedAt": "2023-03-21T20:10:20.000Z"
	},
	{
		"id": "e2935c13-c825-11ed-88ea-b026289853a4",
		"name": "Gale Valley",
		"polyCoords": null,
		"zoneId": "84148979-c85a-11ed-88ea-b026289853a4",
		"longitude": "145.81054687500003",
		"latitude": "-52.32191088594772",
		"description": null,
		"createdAt": "2023-03-21T20:11:34.000Z",
		"updatedAt": "2023-03-21T20:11:34.000Z"
	},
	{
		"id": "d552cec8-c81c-11ed-88ea-b026289853a4",
		"name": "Kor Dragan",
		"polyCoords": "[[90.52734375,30.44867367928756],[86.66015625000001,29.22889003019423],[83.01269531250001,24.686952411999155],[84.15527343750001,16.97274101999902],[87.09960937500001,12.597454504832005],[91.8017578125,11.178401873711785],[96.63574218750001,13.66733825965496],[100.4150390625,20.05593126519445],[98.61328125,23.07973176244989],[98.96484375000001,25.20494115356912],[95.36132812500001,27.916766641249065],[93.82324218750001,28.34306490482549]]",
		"zoneId": "84148979-c85a-11ed-88ea-b026289853a4",
		"longitude": "85.78125",
		"latitude": "24.206889622398023",
		"description": null,
		"createdAt": "2023-03-21T19:06:05.000Z",
		"updatedAt": "2023-03-21T19:06:05.000Z"
	},
	{
		"id": "ef5e876a-c825-11ed-88ea-b026289853a4",
		"name": "Kor Valar",
		"polyCoords": null,
		"zoneId": "84148979-c85a-11ed-88ea-b026289853a4",
		"longitude": "164.09179687500003",
		"latitude": "16.13026201203477",
		"description": null,
		"createdAt": "2023-03-21T20:11:56.000Z",
		"updatedAt": "2023-03-21T20:11:56.000Z"
	},
	{
		"id": "e8e03ca7-c825-11ed-88ea-b026289853a4",
		"name": "Malnok",
		"polyCoords": null,
		"zoneId": "84148979-c85a-11ed-88ea-b026289853a4",
		"longitude": "142.64648437500003",
		"latitude": "-19.72534224805787",
		"description": null,
		"createdAt": "2023-03-21T20:11:44.000Z",
		"updatedAt": "2023-03-21T20:11:44.000Z"
	},
	{
		"id": "c5bb0d3c-c825-11ed-88ea-b026289853a4",
		"name": "Nostrava",
		"polyCoords": null,
		"zoneId": "84148979-c85a-11ed-88ea-b026289853a4",
		"longitude": "70.31250000000001",
		"latitude": "-31.653381399663985",
		"description": null,
		"createdAt": "2023-03-21T20:10:47.000Z",
		"updatedAt": "2023-03-21T20:10:47.000Z"
	},
	{
		"id": "a8e3a8c5-c825-11ed-88ea-b026289853a4",
		"name": "Sarkova Pass",
		"polyCoords": "[[83.05664062500001,24.44714958973082],[75.23437500000001,28.998531814051795],[71.36718750000001,32.175612478499346],[68.55468750000001,33.87041555094183],[65.47851562500001,33.578014746144014],[56.68945312500001,27.761329874505233],[57.04101562500001,23.241346102386135]]",
		"zoneId": "84148979-c85a-11ed-88ea-b026289853a4",
		"longitude": "88.06640625000001",
		"latitude": "2.1967272417616712",
		"description": null,
		"createdAt": "2023-03-21T20:09:33.000Z",
		"updatedAt": "2023-03-21T20:09:33.000Z"
	},
	{
		"id": "f875f5bc-c825-11ed-88ea-b026289853a4",
		"name": "Seat of the Heavens",
		"polyCoords": null,
		"zoneId": "84148979-c85a-11ed-88ea-b026289853a4",
		"longitude": "170.68359375000003",
		"latitude": "-6.577303118123875",
		"description": null,
		"createdAt": "2023-03-21T20:12:05.000Z",
		"updatedAt": "2023-03-21T20:12:05.000Z"
	},
	{
		"id": "ffa9e386-c825-11ed-88ea-b026289853a4",
		"name": "The Crucible",
		"polyCoords": null,
		"zoneId": "84148979-c85a-11ed-88ea-b026289853a4",
		"longitude": "178.15429687500003",
		"latitude": "-28.381735043223095",
		"description": null,
		"createdAt": "2023-03-21T20:12:22.000Z",
		"updatedAt": "2023-03-21T20:12:22.000Z"
	},
	{
		"id": "b1d335d1-c825-11ed-88ea-b026289853a4",
		"name": "The Pallid Glade",
		"polyCoords": null,
		"zoneId": "84148979-c85a-11ed-88ea-b026289853a4",
		"longitude": "55.98632812500001",
		"latitude": "-11.60919340793894",
		"description": null,
		"createdAt": "2023-03-21T20:10:09.000Z",
		"updatedAt": "2023-03-21T20:10:09.000Z"
	}
]
